,Address,Name,Employees,latitude,longitude
0,3666 21st St San Francisco CA 94114 USA,Madeira,8,37.75664965,-122.42940540299549
1,735 Dolores St San Francisco CA 94119 USA,Bready Shop,15,37.757826800000004,-122.42539238108796
2,332 Hill St San Francisco CA 94119 USA,Super River,25,37.755836349999996,-122.42883158327517
3,3995 23rd St San Francisco CA 94119 USA,Ben's Shop,10,37.7529648,-122.4317141
4,738 Sanchez St San Francisco California USA,Sanchez,12,37.75735340909091,-122.43036581818181
